[
{"Id":"1","Name":"区立大泉公園内","Address":"大泉学園町6-25","Latitude":"35.77187107","Longitude":"139.5826057","URL":"http://www.waterworks.metro.tokyo.jp/files/items/18931/Image/94.jpg"},
{"Id":"2","Name":"区立はやいち公園","Address":"早宮1-47-11","Latitude":"35.75308929","Longitude":"139.656607","URL":"http://www.waterworks.metro.tokyo.jp/files/items/18931/Image/96.jpg"},
{"Id":"3","Name":"区立学田公園内","Address":"豊玉南3-32","Latitude":"35.7305802","Longitude":"139.6491383","URL":"http://www.waterworks.metro.tokyo.jp/files/items/18931/Image/95.jpg"},
{"Id":"4","Name":"練馬給水所","Address":"光が丘2-4-1","Latitude":"35.76541945","Longitude":"139.630839","URL":"http://www.waterworks.metro.tokyo.jp/files/items/18931/Image/93.jpg"},
{"Id":"5","Name":"みんなの広場公園","Address":"石神井町８－４１","Latitude":"35.747983","Longitude":"139.5985335","URL":"http://www.waterworks.metro.tokyo.jp/files/items/18931/Image/97.jpg"}
]