[
{"Id":"1","Name":"区立東郷元帥記念公園","Address":"三番町18番地","Latitude":"35.690733","Longitude":"139.740849","URL":"http://www.waterworks.metro.tokyo.jp/files/items/18931/Image/1.jpg"},
{"Id":"2","Name":"都立日比谷公園","Address":"日比谷公園1番地","Latitude":"35.674618","Longitude":"139.756778","URL":"http://www.waterworks.metro.tokyo.jp/files/items/18931/Image/2.jpg"},
{"Id":"3","Name":"都立一橋高等学校","Address":"東神田一丁目12番13号","Latitude":"35.694584","Longitude":"139.781041","URL":"http://www.waterworks.metro.tokyo.jp/files/items/18931/Image/3.jpg"},
{"Id":"4","Name":"晴海給水所","Address":"晴海一丁目6番3号","Latitude":"35.658524","Longitude":"139.784113","URL":"http://www.waterworks.metro.tokyo.jp/files/items/18931/Image/4.jpg"},
{"Id":"5","Name":"区立あかつき公園","Address":"築地七丁目19番1号","Latitude":"35.666661","Longitude":"139.775811","URL":"http://www.waterworks.metro.tokyo.jp/files/items/18931/Image/5.jpg"},
{"Id":"6","Name":"区立堀留児童公園","Address":"日本橋堀留町一丁目1番16号","Latitude":"35.686354","Longitude":"139.779313","URL":"http://www.waterworks.metro.tokyo.jp/files/items/18931/Image/6.jpg"},
{"Id":"7","Name":"芝給水所","Address":"芝公園三丁目6番７号","Latitude":"35.661281","Longitude":"139.745119","URL":"http://www.waterworks.metro.tokyo.jp/files/items/18931/Image/7.jpg"},
{"Id":"8","Name":"都立青山公園","Address":"六本木七丁目23番","Latitude":"35.663405","Longitude":"139.725107","URL":"http://www.waterworks.metro.tokyo.jp/files/items/18931/Image/8.jpg"},
{"Id":"9","Name":"シティハイツ桂坂(港区防災活動拠点)","Address":"高輪二丁目13番8号","Latitude":"35.634542","Longitude":"139.737854","URL":"http://www.waterworks.metro.tokyo.jp/files/items/18931/Image/9.jpg"},
{"Id":"10","Name":"区立文花公園","Address":"文花一丁目27番5号","Latitude":"35.709456","Longitude":"139.822442","URL":"http://www.waterworks.metro.tokyo.jp/files/items/18931/Image/10.jpg"},
{"Id":"11","Name":"区立両国公園","Address":"両国四丁目25番3号","Latitude":"35.693751","Longitude":"139.796119","URL":"http://www.waterworks.metro.tokyo.jp/files/items/18931/Image/11.jpg"},
{"Id":"12","Name":"亀戸給水所","Address":"亀戸二丁目6番50号","Latitude":"35.701016","Longitude":"139.821309","URL":"http://www.waterworks.metro.tokyo.jp/files/items/18931/Image/12.jpg"},
{"Id":"13","Name":"豊住給水所","Address":"東陽六丁目1番8号","Latitude":"35.675039","Longitude":"139.810955","URL":"http://www.waterworks.metro.tokyo.jp/files/items/18931/Image/13.jpg"},
{"Id":"14","Name":"江東給水所","Address":"新砂三丁目6番17号","Latitude":"35.665421","Longitude":"139.841327","URL":"http://www.waterworks.metro.tokyo.jp/files/items/18931/Image/14.jpg"},
{"Id":"15","Name":"有明給水所","Address":"有明三丁目1番8号","Latitude":"35.630827","Longitude":"139.785439","URL":"http://www.waterworks.metro.tokyo.jp/files/items/18931/Image/15.jpg"},
{"Id":"16","Name":"区立南砂三丁目公園","Address":"南砂三丁目14番21号","Latitude":"35.669582","Longitude":"139.833308","URL":"http://www.waterworks.metro.tokyo.jp/files/items/18931/Image/16.jpg"},
{"Id":"17","Name":"都立辰巳の森海浜公園","Address":"辰巳二丁目1番","Latitude":"35.648995","Longitude":"139.812394","URL":"http://www.waterworks.metro.tokyo.jp/files/items/18931/Image/17.jpg"},
{"Id":"18","Name":"西瑞江給水所","Address":"東瑞江一丁目26番2号","Latitude":"35.691353","Longitude":"139.898102","URL":"http://www.waterworks.metro.tokyo.jp/files/items/18931/Image/18.jpg"},
{"Id":"19","Name":"葛西給水所","Address":"北葛西三丁目9番","Latitude":"35.673596","Longitude":"139.859175","URL":"http://www.waterworks.metro.tokyo.jp/files/items/18931/Image/19.jpg"},
{"Id":"20","Name":"都立篠崎公園","Address":"上篠崎一丁目25番","Latitude":"35.714652","Longitude":"139.897981","URL":"http://www.waterworks.metro.tokyo.jp/files/items/18931/Image/20.jpg"},
{"Id":"21","Name":"区立宇喜田中央公園","Address":"北葛西四丁目15番","Latitude":"35.670383","Longitude":"139.864392","URL":"http://www.waterworks.metro.tokyo.jp/files/items/18931/Image/21.jpg"},
{"Id":"22","Name":"区立小岩公園","Address":"北小岩六丁目43番","Latitude":"35.746019","Longitude":"139.886598","URL":"http://www.waterworks.metro.tokyo.jp/files/items/18931/Image/22.jpg"},
{"Id":"23","Name":"都立大島小松川公園","Address":"小松川一丁目7番","Latitude":"35.692168","Longitude":"139.852001","URL":"http://www.waterworks.metro.tokyo.jp/files/items/18931/Image/23.jpg"},
{"Id":"24","Name":"都立葛西南高等学校","Address":"南葛西一丁目11番1号","Latitude":"35.653674","Longitude":"139.870792","URL":"http://www.waterworks.metro.tokyo.jp/files/items/18931/Image/24.jpg"},
{"Id":"25","Name":"南千住給水所","Address":"南千住八丁目2番6号","Latitude":"35.735775","Longitude":"139.807668","URL":"http://www.waterworks.metro.tokyo.jp/files/items/18931/Image/25.jpg"},
{"Id":"27","Name":"小右衛門給水所","Address":"中央本町三丁目8番1号","Latitude":"35.772195","Longitude":"139.807331","URL":"http://www.waterworks.metro.tokyo.jp/files/items/18931/Image/27.jpg"},
{"Id":"28","Name":"区総合スポーツセンター","Address":"東保木間二丁目27番1号","Latitude":"35.792221","Longitude":"139.813647","URL":"http://www.waterworks.metro.tokyo.jp/files/items/18931/Image/28.jpg"},
{"Id":"29","Name":"区立千住スポーツ公園","Address":"千住緑町二丁目1番1号","Latitude":"35.745123","Longitude":"139.795587","URL":"http://www.waterworks.metro.tokyo.jp/files/items/18931/Image/29.jpg"},
{"Id":"30","Name":"区立諏訪木東公園","Address":"西新井三丁目25番","Latitude":"35.789987","Longitude":"139.779991","URL":"http://www.waterworks.metro.tokyo.jp/files/items/18931/Image/30.jpg"},
{"Id":"31","Name":"区立大谷田南公園","Address":"中川四丁目42番1号","Latitude":"35.771721","Longitude":"139.848214","URL":"http://www.waterworks.metro.tokyo.jp/files/items/18931/Image/31.jpg"},
{"Id":"32","Name":"区立北鹿浜公園","Address":"鹿浜三丁目26番","Latitude":"35.782403","Longitude":"139.754116","URL":"http://www.waterworks.metro.tokyo.jp/files/items/18931/Image/32.jpg"},
{"Id":"33","Name":"都立舎人公園","Address":"舎人公園1番1号","Latitude":"35.797124","Longitude":"139.768392","URL":"http://www.waterworks.metro.tokyo.jp/files/items/18931/Image/33.jpg"},
{"Id":"34","Name":"金町浄水場","Address":"金町浄水場1番1号","Latitude":"35.762338","Longitude":"139.87834","URL":"http://www.waterworks.metro.tokyo.jp/files/items/18931/Image/34.jpg"},
{"Id":"35","Name":"水元給水所(都立水元公園内自由広場）","Address":"水元公園4番","Latitude":"35.792406","Longitude":"139.868123","URL":"http://www.waterworks.metro.tokyo.jp/files/items/18931/Image/35.jpg"},
{"Id":"36","Name":"区立上千葉公園","Address":"東堀切三丁目25番1号","Latitude":"35.754973","Longitude":"139.839038","URL":"http://www.waterworks.metro.tokyo.jp/files/items/18931/Image/36.jpg"},
{"Id":"37","Name":"区立新小岩公園","Address":"西新小岩一丁目1番3号","Latitude":"35.716079","Longitude":"139.854791","URL":"http://www.waterworks.metro.tokyo.jp/files/items/18931/Image/37.jpg"},
{"Id":"38","Name":"区立渋江東公園","Address":"東四つ木二丁目15番","Latitude":"35.730762","Longitude":"139.843497","URL":"http://www.waterworks.metro.tokyo.jp/files/items/18931/Image/38.jpg"},
{"Id":"39","Name":"淀橋給水所","Address":"西新宿二丁目10番1号","Latitude":"35.688118","Longitude":"139.690639","URL":"http://www.waterworks.metro.tokyo.jp/files/items/18931/Image/39.jpg"},
{"Id":"40","Name":"区立鶴巻南公園","Address":"早稲田鶴巻町507番","Latitude":"35.706242","Longitude":"139.724088","URL":"http://www.waterworks.metro.tokyo.jp/files/items/18931/Image/40.jpg"},
{"Id":"41","Name":"区立百人町ふれあい公園","Address":"百人町三丁目28番","Latitude":"35.705411","Longitude":"139.695688","URL":"http://www.waterworks.metro.tokyo.jp/files/items/18931/Image/41.jpg"},
{"Id":"42","Name":"区立弥生公園","Address":"弥生町五丁目4番","Latitude":"35.686515","Longitude":"139.666897","URL":"http://www.waterworks.metro.tokyo.jp/files/items/18931/Image/42.jpg"},
{"Id":"43","Name":"区立江古田の森公園","Address":"江古田三丁目14番","Latitude":"35.730065","Longitude":"139.665765","URL":"http://www.waterworks.metro.tokyo.jp/files/items/18931/Image/43.jpg"},
{"Id":"44","Name":"区立みずのとう公園","Address":"江古田一丁目3番","Latitude":"35.724325","Longitude":"139.674614","URL":"http://www.waterworks.metro.tokyo.jp/files/items/18931/Image/44.jpg"},
{"Id":"45","Name":"杉並浄水所（注1）","Address":"善福寺三丁目28番5号","Latitude":"35.715123","Longitude":"139.588683","URL":"http://www.waterworks.metro.tokyo.jp/files/items/18931/Image/45.jpg"},
{"Id":"46","Name":"和泉水圧調整所","Address":"和泉二丁目5番23号","Latitude":"35.671175","Longitude":"139.653082","URL":"http://www.waterworks.metro.tokyo.jp/files/items/18931/Image/46.jpg"},
{"Id":"47","Name":"上井草給水所","Address":"上井草三丁目22番12号","Latitude":"35.721634","Longitude":"139.601234","URL":"http://www.waterworks.metro.tokyo.jp/files/items/18931/Image/47.jpg"},
{"Id":"48","Name":"都立和田堀公園","Address":"大宮二丁目26番","Latitude":"34.723654","Longitude":"135.548149","URL":"http://www.waterworks.metro.tokyo.jp/files/items/18931/Image/48.jpg"},
{"Id":"49","Name":"区立蚕糸の森公園","Address":"和田三丁目55番","Latitude":"35.038027","Longitude":"136.92374","URL":"http://www.waterworks.metro.tokyo.jp/files/items/18931/Image/49.jpg"},
{"Id":"50","Name":"区立昭栄公園","Address":"高井戸西一丁目12番","Latitude":"35.681022","Longitude":"139.608769","URL":"http://www.waterworks.metro.tokyo.jp/files/items/18931/Image/50.jpg"},
{"Id":"52","Name":"区立馬橋公園","Address":"高円寺北四丁目35番5号","Latitude":"35.709564","Longitude":"139.643062","URL":"http://www.waterworks.metro.tokyo.jp/files/items/18931/Image/52.jpg"},
{"Id":"53","Name":"区立戸越公園","Address":"豊町二丁目1番30号","Latitude":"35.611166","Longitude":"139.722392","URL":"http://www.waterworks.metro.tokyo.jp/files/items/18931/Image/53.jpg"},
{"Id":"54","Name":"区立しおじ公園","Address":"八潮五丁目6番","Latitude":"35.597341","Longitude":"139.749552","URL":"http://www.waterworks.metro.tokyo.jp/files/items/18931/Image/54.jpg"},
{"Id":"55","Name":"都立八潮高等学校","Address":"東品川三丁目27番22号","Latitude":"35.61185","Longitude":"139.746609","URL":"http://www.waterworks.metro.tokyo.jp/files/items/18931/Image/55.jpg"},
{"Id":"56","Name":"馬込給水所","Address":"西馬込二丁目15番6号","Latitude":"35.588321","Longitude":"139.702139","URL":"http://www.waterworks.metro.tokyo.jp/files/items/18931/Image/56.jpg"},
{"Id":"57","Name":"上池台給水所","Address":"上池台一丁目48番25号","Latitude":"35.60047","Longitude":"139.699736","URL":"http://www.waterworks.metro.tokyo.jp/files/items/18931/Image/57.jpg"},
{"Id":"58","Name":"東海給水所","Address":"東海一丁目3番12号","Latitude":"35.585493","Longitude":"139.75373","URL":"http://www.waterworks.metro.tokyo.jp/files/items/18931/Image/58-2.jpg"},
{"Id":"59","Name":"区立西六郷三丁目公園","Address":"西六郷三丁目16番16号","Latitude":"35.546292","Longitude":"139.705936","URL":"http://www.waterworks.metro.tokyo.jp/files/items/18931/Image/58.jpg"},
{"Id":"60","Name":"区立萩中公園","Address":"萩中三丁目25番26号","Latitude":"35.549695","Longitude":"139.739022","URL":"http://www.waterworks.metro.tokyo.jp/files/items/18931/Image/59.jpg"},
{"Id":"61","Name":"区立都堀公園","Address":"大森東一丁目30番","Latitude":"35.577388","Longitude":"139.738367","URL":"http://www.waterworks.metro.tokyo.jp/files/items/18931/Image/60.jpg"},
{"Id":"62","Name":"区立下丸子公園","Address":"下丸子四丁目21番","Latitude":"35.569205","Longitude":"139.679065","URL":"http://www.waterworks.metro.tokyo.jp/files/items/18931/Image/61.jpg"},
{"Id":"63","Name":"区立女塚なかよし公園","Address":"池上五丁目24番","Latitude":"35.572749","Longitude":"139.711053","URL":"http://www.waterworks.metro.tokyo.jp/files/items/18931/Image/62.jpg"},
{"Id":"64","Name":"八雲給水所","Address":"八雲一丁目1番","Latitude":"35.621306","Longitude":"139.671785","URL":"http://www.waterworks.metro.tokyo.jp/files/items/18931/Image/63.jpg"},
{"Id":"65","Name":"都立林試の森公園","Address":"下目黒五丁目37番","Latitude":"35.624878","Longitude":"139.704154","URL":"http://www.waterworks.metro.tokyo.jp/files/items/18931/Image/64.jpg"},
{"Id":"66","Name":"砧浄水場","Address":"喜多見二丁目9番1号","Latitude":"35.622907","Longitude":"139.593853","URL":"http://www.waterworks.metro.tokyo.jp/files/items/18931/Image/65.jpg"},
{"Id":"68","Name":"和田堀給水所","Address":"大原二丁目30番43号","Latitude":"35.6702","Longitude":"139.657523","URL":"http://www.waterworks.metro.tokyo.jp/files/items/18931/Image/67.jpg"},
{"Id":"69","Name":"玉川給水所","Address":"玉川田園調布一丁目19番1号","Latitude":"35.600872","Longitude":"139.660917","URL":"http://www.waterworks.metro.tokyo.jp/files/items/18931/Image/68.jpg"},
{"Id":"70","Name":"大蔵給水所","Address":"砧二丁目8番1号","Latitude":"35.642857","Longitude":"139.616258","URL":"http://www.waterworks.metro.tokyo.jp/files/items/18931/Image/69.jpg"},
{"Id":"71","Name":"駒沢給水所","Address":"弦巻二丁目41番5号","Latitude":"35.633587","Longitude":"139.650761","URL":"http://www.waterworks.metro.tokyo.jp/files/items/18931/Image/70.jpg"},
{"Id":"73","Name":"区立葭根公園","Address":"船橋六丁目21番","Latitude":"35.658031","Longitude":"139.622471","URL":"http://www.waterworks.metro.tokyo.jp/files/items/18931/Image/72.jpg"},
{"Id":"74","Name":"都立祖師谷公園","Address":"上祖師谷四丁目2番","Latitude":"35.653406","Longitude":"139.597484","URL":"http://www.waterworks.metro.tokyo.jp/files/items/18931/Image/73.jpg"},
{"Id":"75","Name":"区立中町二丁目公園","Address":"中町二丁目34番1号","Latitude":"35.611598","Longitude":"139.641169","URL":"http://www.waterworks.metro.tokyo.jp/files/items/18931/Image/74.jpg"},
{"Id":"76","Name":"都立代々木公園","Address":"代々木神園町二番1号","Latitude":"35.6728","Longitude":"139.692595","URL":"http://www.waterworks.metro.tokyo.jp/files/items/18931/Image/75.jpg"},
{"Id":"77","Name":"都立第一商業高等学校","Address":"鉢山町8番1号","Latitude":"35.650161","Longitude":"139.698585","URL":"http://www.waterworks.metro.tokyo.jp/files/items/18931/Image/76.jpg"},
{"Id":"78","Name":"区立景丘公園","Address":"恵比寿四丁目19番21号","Latitude":"35.643796","Longitude":"139.713581","URL":"http://www.waterworks.metro.tokyo.jp/files/items/18931/Image/77.jpg"},
{"Id":"79","Name":"本郷給水所","Address":"本郷二丁目7番29号","Latitude":"35.703832","Longitude":"139.760408","URL":"http://www.waterworks.metro.tokyo.jp/files/items/18931/Image/78.jpg"},
{"Id":"80","Name":"区立教育の森公園","Address":"大塚三丁目29番","Latitude":"35.720552","Longitude":"139.737081","URL":"http://www.waterworks.metro.tokyo.jp/files/items/18931/Image/79.jpg"},
{"Id":"81","Name":"都立上野恩賜公園","Address":"上野公園8番51号","Latitude":"35.717256","Longitude":"139.774456","URL":"http://www.waterworks.metro.tokyo.jp/files/items/18931/Image/80.jpg"},
{"Id":"82","Name":"区立西池袋公園","Address":"西池袋三丁目20番1号","Latitude":"35.730514","Longitude":"139.70555","URL":"http://www.waterworks.metro.tokyo.jp/files/items/18931/Image/81.jpg"},
{"Id":"83","Name":"都立文京高等学校","Address":"西巣鴨一丁目1番5号","Latitude":"35.735855","Longitude":"139.728987","URL":"http://www.waterworks.metro.tokyo.jp/files/items/18931/Image/82.jpg"},
{"Id":"84","Name":"区立桐ヶ丘中央公園","Address":"桐ヶ丘一丁目8番","Latitude":"34.888818","Longitude":"136.916757","URL":"http://www.waterworks.metro.tokyo.jp/files/items/18931/Image/83.jpg"},
{"Id":"85","Name":"区立滝野川公園","Address":"西ヶ原二丁目1番","Latitude":"35.74541","Longitude":"139.744488","URL":"http://www.waterworks.metro.tokyo.jp/files/items/18931/Image/84.jpg"},
{"Id":"86","Name":"区立北運動公園","Address":"神谷二丁目47番6号","Latitude":"35.77474","Longitude":"139.728258","URL":"http://www.waterworks.metro.tokyo.jp/files/items/18931/Image/85.jpg"},
{"Id":"87","Name":"三園浄水場","Address":"三園二丁目10番1号","Latitude":"35.794832","Longitude":"139.641978","URL":"http://www.waterworks.metro.tokyo.jp/files/items/18931/Image/86.jpg"},
{"Id":"88","Name":"板橋給水所","Address":"加賀一丁目17番1号","Latitude":"35.755175","Longitude":"139.719223","URL":"http://www.waterworks.metro.tokyo.jp/files/items/18931/Image/87.jpg"},
{"Id":"89","Name":"大谷口給水所","Address":"大谷口一丁目4番","Latitude":"35.745528","Longitude":"139.691062","URL":"http://www.waterworks.metro.tokyo.jp/files/items/18931/Image/89-2.jpg"},
{"Id":"90","Name":"都立城北中央公園","Address":"桜川一丁目1番","Latitude":"34.66751","Longitude":"135.493797","URL":"http://www.waterworks.metro.tokyo.jp/files/items/18931/Image/88.jpg"},
{"Id":"91","Name":"区立城北公園","Address":"坂下二丁目19番1号","Latitude":"35.783571","Longitude":"139.681539","URL":"http://www.waterworks.metro.tokyo.jp/files/items/18931/Image/89.jpg"},
{"Id":"92","Name":"都立板橋高等学校","Address":"大谷口一丁目54番1号","Latitude":"35.741873","Longitude":"139.689918","URL":"http://www.waterworks.metro.tokyo.jp/files/items/18931/Image/90.jpg"},
{"Id":"93","Name":"都立赤塚公園","Address":"高島平三丁目1番","Latitude":"35.785228","Longitude":"139.6553","URL":"http://www.waterworks.metro.tokyo.jp/files/items/18931/Image/91.jpg"},
{"Id":"94","Name":"区立西徳第二公園","Address":"西台三丁目42番1号","Latitude":"35.776154","Longitude":"139.667838","URL":"http://www.waterworks.metro.tokyo.jp/files/items/18931/Image/92.jpg"},
{"Id":"95","Name":"練馬給水所","Address":"光が丘二丁目4番1号","Latitude":"35.7634","Longitude":"139.631883","URL":"http://www.waterworks.metro.tokyo.jp/files/items/18931/Image/93.jpg"},
{"Id":"96","Name":"区立大泉公園","Address":"大泉学園町六丁目25番","Latitude":"35.771902","Longitude":"139.58279","URL":"http://www.waterworks.metro.tokyo.jp/files/items/18931/Image/94.jpg"},
{"Id":"97","Name":"区立学田公園","Address":"豊玉南三丁目32番","Latitude":"35.729615","Longitude":"139.649374","URL":"http://www.waterworks.metro.tokyo.jp/files/items/18931/Image/95.jpg"},
{"Id":"99","Name":"区立みんなの広場公園","Address":"石神井町八丁目41番","Latitude":"35.748059","Longitude":"139.598236","URL":"http://www.waterworks.metro.tokyo.jp/files/items/18931/Image/97.jpg"}
]